{
    "apiList":[
        {
            "key": 1,
            "name": "고기앞으로 백암이네",
            "bCategory": "고기\/술집",
            "bLocation": "외사",
            "sLocation": "경기 용인시 처인구 모현읍 백옥대로 2384번길 9",
            "Latitude": 37.3362559,
            "Longitude": 127.2510415,
            "wayTogo": "(큰 씨유 편의점 건너편 건물, 자양포차 옆에 위치)",
            "sCategory": "고기"
           },
           {
            "key": 2,
            "name": "외대갈매기용인모현본점",
            "bCategory": "고기\/술집",
            "hashtag": "단체회식",
            "bLocation": "모사",
            "sLocation": "경기 용인시 처인구 모현읍 외대로40번길 4",
            "Latitude": 37.3355537,
            "Longitude": 127.2534481,
            "sCategory": "고기"
           },
           {
            "key": 3,
            "name": "자양포차",
            "bCategory": "고기\/술집",
            "bLocation": "모사",
            "sLocation": "경기 용인시 처인구 모현읍 백옥대로2384번길 9",
            "Latitude": 37.3362559,
            "Longitude": 127.2510415,
            "sCategory": "-"
           },
           {
            "key": 4,
            "name": "오늘의 막걸리",
            "bCategory": "고기\/술집",
            "bLocation": "모사",
            "sLocation": "경기 용인시 처인구 모현읍 외대로26번길 2 2층 오늘의막걸리",
            "Latitude": 37.3349333,
            "Longitude": 127.2523863,
            "sCategory": "-",
            "workDay": "토16:00 - 새벽 01:00새벽 00:00 라스트오더일정기휴무 (매주 일요일)월16:00 - 새벽 01:00새벽 00:00 라스트오더화16:00 - 새벽 01:00새벽 00:00 라스트오더수16:00 - 새벽 01:00새벽 00:00 라스트오더목16:00 - 새벽 01:00새벽 00:00 라스트오더금16:00 - 새벽 01:00새벽 00:00 라스트오더"
           },
           {
            "key": 5,
            "name": "비어킹",
            "bCategory": "고기\/술집",
            "bLocation": "모사",
            "sLocation": "경기 용인시 처인구 모현읍 외대로26번길 2",
            "Latitude": 37.3349333,
            "Longitude": 127.2523863
           },
           {
            "key": 6,
            "name": "앨리스키친",
            "bCategory": "양식\/일식",
            "bLocation": "외사",
            "sLocation": "경기 용인시 처인구 모현읍 외대로 56",
            "Latitude": 37.3353454,
            "Longitude": 127.255565
           },
           {
            "key": 7,
            "name": "이태리식당",
            "bCategory": "양식\/일식",
            "bLocation": "왕산초 부근",
            "sLocation": "경기 용인시 처인구 모현읍 백옥대로2366번길 9-4 1층",
            "Latitude": 37.3335456,
            "Longitude": 127.2493762,
            "sCategory": "파스타"
           },
           {
            "key": 8,
            "name": "미가초밥",
            "bCategory": "양식\/일식",
            "bLocation": "왕산초 부근",
            "holiday": "매달 1, 3, 5번째 일요일 정기 휴무접기",
            "sLocation": "경기 용인시 처인구 모현읍 백옥대로2366번길 8-1",
            "Latitude": 37.3342218,
            "Longitude": 127.2501605,
            "sCategory": "초밥"
           },
           {
            "key": 9,
            "name": "마라 장룡 모현점",
            "bCategory": "중식",
            "bLocation": "외사",
            "sLocation": "경기 용인시 처인구 모현읍 백옥대로2384번길 21-31",
            "Latitude": 37.3364293,
            "Longitude": 127.2504139,
            "wayTogo": "(교촌치킨 뒤, 신전떡볶이 옆에 위치)",
            "sCategory": "마라탕",
            "workDay": "오전 11:00- 오후 10:30"
           },
           {
            "key": 10,
            "name": "차이나타운",
            "bCategory": "중식",
            "bLocation": "왕산초 부근",
            "holiday": "월요일",
            "sLocation": "경기 용인시 처인구 모현읍 백옥대로2366번길 9-11",
            "Latitude": 37.3351682,
            "Longitude": 127.2513405
           },
           {
            "key": 11,
            "name": "모현양꼬치",
            "bCategory": "중식",
            "bLocation": "외사",
            "sLocation": "경기 용인시 처인구 모현읍 백옥대로2402번길 13",
            "Latitude": 37.3375309,
            "Longitude": 127.2511907,
            "sCategory": "양꼬치"
           },
           {
            "key": 12,
            "name": "야미마라탕 용인점",
            "bCategory": "중식",
            "sLocation": "경기 용인시 처인구 모현읍 외대로26번길 2 대종빌딩 1층",
            "Latitude": 37.3349333,
            "Longitude": 127.2523863,
            "sCategory": "마라탕",
            "workDay": "토\n12:00 - 21:30\n일\n12:00 - 21:30\n월\n11:30 - 21:30\n15:00 - 16:00 브레이크타임\n화\n11:30 - 21:30\n15:00 - 16:00 브레이크타임\n수\n11:30 - 21:30\n15:00 - 16:00 브레이크타임\n목\n11:30 - 21:30\n15:00 - 16:00 브레이크타임\n금\n11:30 - 21:30\n15:00 - 16:00 브레이크타임\n"
           },
           {
            "key": 13,
            "name": "피자보이",
            "bCategory": "패스트푸드\/분식",
            "bLocation": "모사",
            "holiday": "매일11:00 - 23:00",
            "sLocation": "경기 용인시 처인구 모현읍 외대로26번길 2",
            "Latitude": 37.3349333,
            "Longitude": 127.2523863,
            "sCategory": "피자"
           },
           {
            "key": 14,
            "name": "교촌치킨",
            "bCategory": "패스트푸드\/분식",
            "bLocation": "외사",
            "sLocation": "경기 용인시 처인구 모현읍 백옥대로2384번길 21-31",
            "Latitude": 37.3364293,
            "Longitude": 127.2504139,
            "sCategory": "치킨"
           },
           {
            "key": 15,
            "name": "bhc",
            "bCategory": "패스트푸드\/분식",
            "bLocation": "외사",
            "sLocation": "경기 용인시 처인구 모현읍 외대로 6",
            "Latitude": 37.3371717,
            "Longitude": 127.2499732,
            "sCategory": "치킨"
           },
           {
            "key": 16,
            "name": "지코바",
            "bCategory": "패스트푸드\/분식",
            "bLocation": "모사",
            "sLocation": "경기 용인시 처인구 모현읍 외대로40번길 1",
            "Latitude": 37.3356518,
            "Longitude": 127.2538625,
            "sCategory": "치킨"
           },
           {
            "key": 17,
            "name": "디저트39",
            "bCategory": "카페\/디저트",
            "bLocation": "모사",
            "sLocation": "경기 용인시 처인구 모현읍 외대로 42",
            "Latitude": 37.3356031,
            "Longitude": 127.2539961,
            "sCategory": "-"
           },
           {
            "key": 18,
            "name": "썸카페",
            "bCategory": "카페\/디저트",
            "bLocation": "모사",
            "sLocation": "경기 용인시 처인구 모현읍 외대로 42-1",
            "Latitude": 37.335541,
            "Longitude": 127.25414,
            "sCategory": "-"
           },
           {
            "key": 19,
            "name": "반달커피",
            "bCategory": "카페\/디저트",
            "bLocation": "모사",
            "sLocation": "경기 용인시 처인구 모현읍 외대로40번길 12",
            "Latitude": 37.3353584,
            "Longitude": 127.2533747,
            "sCategory": "-",
            "workDay": "토\n12:00 - 19:00\n일\n12:00 - 19:00\n월\n10:30 - 20:00\n화\n10:30 - 20:00\n수\n10:30 - 20:00\n목\n10:30 - 20:00\n금\n10:30 - 20:00\r"
           },
           {
            "key": 20,
            "name": "카페 YEY",
            "bCategory": "카페\/디저트",
            "bLocation": "왕산초 부근",
            "holiday": "일요일",
            "sLocation": "경기 용인시 처인구 모현읍 백옥대로 2332번길 17",
            "Latitude": 37.3323844,
            "Longitude": 127.2493248,
            "wayTogo": "(풍산 아파트 단지 앞 세븐일레븐 편의점 옆에 위치)",
            "workDay": "매일 11:00-20:00"
           },
           {
            "key": 21,
            "name": "커피에 반하다",
            "bCategory": "카페\/디저트",
            "bLocation": "모사",
            "holiday": "주말 10:00 - 22:30평일 09:30 - 22:30",
            "sLocation": "경기 용인시 처인구 모현읍 외대로54번길 6",
            "Latitude": 37.3329871,
            "Longitude": 127.2546841,
            "wayTogo": "정문거의 바로 앞",
            "sCategory": "-"
           },
           {
            "key": 22,
            "name": "달리는 커피",
            "bCategory": "카페\/디저트",
            "hashtag": "배달 ",
            "bLocation": "모사",
            "holiday": "토11:00 - 21:0015:50 - 17:00 브레이크타임일정기휴무 (매주 일요일)월11:00 - 21:0015:50 - 17:00 브레이크타임화11:00 - 21:0015:50 - 17:00 브레이크타임수11:00 - 21:0015:50 - 17:00 브레이크타임목11:00 - 21:0015:50 - 17:00 브레이크타임금11:00 - 21:0015:50 - 17:00 브레이크타임",
            "sLocation": "경기 용인시 처인구 모현읍 백옥대로2384번길 13-1 1층",
            "Latitude": 37.3362559,
            "Longitude": 127.2510415,
            "sCategory": "샌드위치"
           },
           {
            "key": 23,
            "name": "고인돌",
            "bCategory": "카페\/디저트",
            "bLocation": "모사",
            "sLocation": "경기 용인시 처인구 모현읍 외대로26번길 3",
            "Latitude": 37.3359482,
            "Longitude": 127.2524128,
            "sCategory": "-"
           },
           {
            "key": 24,
            "name": "미쳐버린 파닭 용인외대점",
            "bCategory": "패스트푸드\/분식",
            "bLocation": "모사",
            "sLocation": "경기 용인시 처인구 모현읍 백옥대로2384번길 21-2 누나네",
            "Latitude": 37.3362221,
            "Longitude": 127.2519936,
            "sCategory": "치킨\/피자 세트"
           },
           {
            "key": 25,
            "name": "롯데리아 용인모현점",
            "bCategory": "패스트푸드\/분식",
            "bLocation": "외사",
            "sLocation": "경기 용인시 처인구 모현읍 백옥대로 2387 목우촌",
            "Latitude": 37.336757,
            "Longitude": 127.2493747,
            "sCategory": "햄버거"
           },
           {
            "key": 26,
            "name": "동대문엽기떡볶이 용인모현점",
            "bCategory": "패스트푸드\/분식",
            "bLocation": "모사",
            "sLocation": "경기 용인시 처인구 모현읍 백옥대로2384번길 20",
            "Latitude": 37.3356919,
            "Longitude": 127.2516434,
            "sCategory": "떡볶이"
           },
           {
            "key": 27,
            "name": "신전떡볶이",
            "bCategory": "패스트푸드\/분식",
            "bLocation": "외사",
            "sLocation": "경기 용인시 처인구 모현읍 백옥대로2384번길 21-31",
            "Latitude": 37.3364293,
            "Longitude": 127.2504139
           },
           {
            "key": 28,
            "name": "리오부리또",
            "bCategory": "패스트푸드\/분식",
            "bLocation": "외사",
            "sLocation": "경기 용인시 처인구 모현읍 외대로 20 신보빌딩",
            "Latitude": 37.3365079999999,
            "Longitude": 127.251606
           },
           {
            "key": 29,
            "name": "전라도 야식",
            "bCategory": "한식",
            "bLocation": "배달",
            "sLocation": "경기 용인시 처인구 모현읍 외대로 22",
            "Latitude": 37.3363618,
            "Longitude": 127.2519968,
            "sCategory": "야식 배달"
           },
           {
            "key": 30,
            "name": "바비든든",
            "bCategory": "한식",
            "bLocation": "교내 ",
            "sLocation": "경기 용인시 처인구 모현읍 외대로 81 후생관 1층",
            "Latitude": 37.3392476,
            "Longitude": 127.2625483,
            "sCategory": "컵밥"
           },
           {
            "key": 31,
            "name": "로뎀식당",
            "bCategory": "한식",
            "bLocation": "외사",
            "sLocation": "경기 용인시 처인구 모현읍 외대로 22",
            "Latitude": 37.3363618,
            "Longitude": 127.2519968,
            "sCategory": "백반"
           },
           {
            "key": 32,
            "name": "성수식당",
            "bCategory": "한식",
            "bLocation": "모사",
            "holiday": "오픈시간 11시부터",
            "sLocation": "경기 용인시 처인구 모현읍 외대로54번길 11",
            "Latitude": 37.3329871,
            "Longitude": 127.2546841,
            "wayTogo": "정문거의 바로 앞",
            "sCategory": "백반"
           },
           {
            "key": 33,
            "name": "정육점식당",
            "bCategory": "한식",
            "bLocation": "모사",
            "sLocation": "경기 용인시 처인구 모현읍 외대로 28",
            "Latitude": 37.3361498,
            "Longitude": 127.2525169,
            "wayTogo": "할인마트 바로옆",
            "sCategory": "백반"
           },
           {
            "key": 34,
            "name": "명동찌개마을외대점",
            "bCategory": "한식",
            "bLocation": "모사",
            "sLocation": "경기 용인시 처인구 모현읍 외대로26번길 6",
            "Latitude": 37.3349333,
            "Longitude": 127.2523863,
            "sCategory": "찌개"
           },
           {
            "key": 35,
            "name": "백채김치찌개",
            "bCategory": "한식",
            "bLocation": "모사",
            "sLocation": "경기 용인시 처인구 모현읍 외대로26번길 6",
            "Latitude": 37.3362559,
            "Longitude": 127.2510415,
            "sCategory": "찌개"
           },
           {
            "key": 36,
            "name": "할매순대국",
            "bCategory": "한식",
            "bLocation": "모사",
            "sLocation": "경기 용인시 처인구 모현읍 외대로 50",
            "Latitude": 37.3354201,
            "Longitude": 127.2548443,
            "sCategory": "국밥"
           },
           {
            "key": 37,
            "name": "엄마손칼국수",
            "bCategory": "한식",
            "bLocation": "모사",
            "sLocation": "경기 용인시 처인구 모현읍 백옥대로2384번길 18",
            "Latitude": 37.3362559,
            "Longitude": 127.2510415,
            "sCategory": "칼국수,돈까스"
           },
           {
            "key": 38,
            "name": "두찜",
            "bCategory": "한식",
            "bLocation": "외사",
            "sLocation": "경기 용인시 처인구 모현읍 백옥대로2384번길 20-13 1층 101호",
            "Latitude": 37.3356919,
            "Longitude": 127.2516434,
            "sCategory": "찜닭"
           },
           {
            "key": 40,
            "name": "샤브향",
            "bCategory": "한식",
            "hashtag": "밥약",
            "bLocation": "모사",
            "sLocation": "경기 용인시 처인구 모현읍 외대로 42-1 2층",
            "Latitude": 37.335541,
            "Longitude": 127.25414
           }
]
}